{
"type": "FeatureCollection",
"name": "farmersmarkets",
"crs": { "type": "name", "properties": { "name": "urn:ogc:def:crs:OGC:1.3:CRS84" } },
"features": [
{ "type": "Feature", "properties": { "name": "Farmers' Market at Christ Church", "address": "20 N. American Street" }, "geometry": { "type": "Point", "coordinates": [ -75.14413923, 39.950626160000098 ] } },
{ "type": "Feature", "properties": { "name": "Clark Park Farmers' Market", "address": "4300 Baltimore Avenue" }, "geometry": { "type": "Point", "coordinates": [ -75.20915537, 39.94895051 ] } },
{ "type": "Feature", "properties": { "name": "Germantown Farmers' Market", "address": "5501 Germantown Avenue" }, "geometry": { "type": "Point", "coordinates": [ -75.17227844, 40.03415377 ] } },
{ "type": "Feature", "properties": { "name": "Norris Square Neighborhood Project Farm Stand", "address": "2217 N 2nd Street" }, "geometry": { "type": "Point", "coordinates": [ -75.136182969999894, 39.98430499 ] } },
{ "type": "Feature", "properties": { "name": "Henry Got Crops Farm Market", "address": "7095 Henry Avenue" }, "geometry": { "type": "Point", "coordinates": [ -75.2195837, 40.049276050000103 ] } },
{ "type": "Feature", "properties": { "name": "Pretzel Park Farmers' Market", "address": "4300 Silverwood Street" }, "geometry": { "type": "Point", "coordinates": [ -75.22069356, 40.025776580000098 ] } },
{ "type": "Feature", "properties": { "name": "Awbury Farmers' Market", "address": "6336 Ardleigh St." }, "geometry": { "type": "Point", "coordinates": [ -75.17028312, 40.05556527 ] } },
{ "type": "Feature", "properties": { "name": "Rittenhouse Farmers' Market", "address": "1800 Walnut Street" }, "geometry": { "type": "Point", "coordinates": [ -75.17158, 39.95028558 ] } },
{ "type": "Feature", "properties": { "name": "Brewerytown Garden Farmstand", "address": "27th & Master Streets" }, "geometry": { "type": "Point", "coordinates": [ -75.17971438, 39.977115840000103 ] } },
{ "type": "Feature", "properties": { "name": "Headhouse Farmers' Market", "address": "2nd and Lombard" }, "geometry": { "type": "Point", "coordinates": [ -75.1453842, 39.9426664 ] } },
{ "type": "Feature", "properties": { "name": "Northeast WIC Office Farm Stand", "address": "7959 Bustleton Avenue" }, "geometry": { "type": "Point", "coordinates": [ -75.05188823, 40.058817760000103 ] } },
{ "type": "Feature", "properties": { "name": "52nd and Haverford Farmers' Market", "address": "52nd and Haverford" }, "geometry": { "type": "Point", "coordinates": [ -75.22420298, 39.96505449 ] } },
{ "type": "Feature", "properties": { "name": "Sankofa Farmstand", "address": "54th and Lindbergh Blvd" }, "geometry": { "type": "Point", "coordinates": [ -75.21549225, 39.933416990000097 ] } },
{ "type": "Feature", "properties": { "name": "Novick Urban Farm Market", "address": "600 W. Ritner St. Philadelphia, PA" }, "geometry": { "type": "Point", "coordinates": [ -75.15728831, 39.91905153 ] } },
{ "type": "Feature", "properties": { "name": "Jefferson Farmers' Market", "address": "925 Chestnut Street" }, "geometry": { "type": "Point", "coordinates": [ -75.15671707, 39.95002551 ] } },
{ "type": "Feature", "properties": { "name": "East Passyunk Farmers' Market", "address": "1420 E. Passyunk Avenue" }, "geometry": { "type": "Point", "coordinates": [ -75.16230745, 39.931052780000101 ] } },
{ "type": "Feature", "properties": { "name": "Dickinson Square Farmers' Market", "address": "301 Morris Street" }, "geometry": { "type": "Point", "coordinates": [ -75.15124536, 39.927130750000103 ] } },
{ "type": "Feature", "properties": { "name": "Germantown Kitchen Garden", "address": "215 East Penn Street" }, "geometry": { "type": "Point", "coordinates": [ -75.16680116, 40.03480488 ] } },
{ "type": "Feature", "properties": { "name": "Chestnut Hill Farmers' Market", "address": "7640 Winston Road" }, "geometry": { "type": "Point", "coordinates": [ -75.19690335, 40.06753587 ] } },
{ "type": "Feature", "properties": { "name": "East Falls Farmers' Market", "address": "4100 Ridge Avenue" }, "geometry": { "type": "Point", "coordinates": [ -75.19176241, 40.00822385 ] } },
{ "type": "Feature", "properties": { "name": "Fairmount Farmers' Market", "address": "22nd and Fairmount" }, "geometry": { "type": "Point", "coordinates": [ -75.17407894, 39.96742213 ] } },
{ "type": "Feature", "properties": { "name": "4th and Lehigh Farmers Market", "address": "4th and Lehigh" }, "geometry": { "type": "Point", "coordinates": [ -75.138497399999906, 39.991703690000101 ] } },
{ "type": "Feature", "properties": { "name": "Overbrook Farmers' Market", "address": "6376 City Ave" }, "geometry": { "type": "Point", "coordinates": [ -75.25301899, 39.988203 ] } },
{ "type": "Feature", "properties": { "name": "South & Passyunk Farmers' Market", "address": "South Street & E. Passyunk Avenue" }, "geometry": { "type": "Point", "coordinates": [ -75.15043231, 39.94163969 ] } },
{ "type": "Feature", "properties": { "name": "Schuylkill River Park Farmers' Market", "address": "2500 Spruce Street" }, "geometry": { "type": "Point", "coordinates": [ -75.181226519999896, 39.9490245900001 ] } },
{ "type": "Feature", "properties": { "name": "Castor and Hellerman Farmers' Market", "address": "Castor Avenue and Hellerman Street" }, "geometry": { "type": "Point", "coordinates": [ -75.07625001, 40.0406999900001 ] } },
{ "type": "Feature", "properties": { "name": "Northern Liberties Farmers' Market", "address": "2nd Ave and Germantown Ave" }, "geometry": { "type": "Point", "coordinates": [ -75.139701559999907, 39.967773900000097 ] } },
{ "type": "Feature", "properties": { "name": "Hunting Park Farmers Market", "address": "Old York Rd. & W. Hunting Park" }, "geometry": { "type": "Point", "coordinates": [ -75.146739249999897, 40.01620425 ] } },
{ "type": "Feature", "properties": { "name": "Frankford Transportation Center Farmers Market", "address": "Bustleton and Frankford Ave" }, "geometry": { "type": "Point", "coordinates": [ -75.077160229999905, 40.02339859 ] } },
{ "type": "Feature", "properties": { "name": "Grumblethorpe Youth Farmstand", "address": "5267 Germantown Ave" }, "geometry": { "type": "Point", "coordinates": [ -75.168348659999893, 40.03194741 ] } },
{ "type": "Feature", "properties": { "name": "Mill Creek Urban Farm", "address": "4901 Brown Street" }, "geometry": { "type": "Point", "coordinates": [ -75.218912019999905, 39.966323 ] } }
]
}
